{
  "AD": { "name": "Andorra", "lat": 42.55, "lng": 1.58 },
  "AE": { "name": "Birleşik Arap Emirlikleri", "lat": 23.42, "lng": 53.85 },
  "AG": { "name": "Antigua ve Barbuda", "lat": 17.06, "lng": -61.8 },
  "AL": { "name": "Arnavutluk", "lat": 41.15, "lng": 20.17 },
  "AM": { "name": "Ermenistan", "lat": 40.07, "lng": 45.04 },
  "AO": { "name": "Angola", "lat": -11.2, "lng": 17.87 },
  "AR": { "name": "Arjantin", "lat": -38.42, "lng": -63.62 },
  "AT": { "name": "Avusturya", "lat": 47.52, "lng": 14.55 },
  "AU": { "name": "Avustralya", "lat": -25.27, "lng": 133.78 },
  "AZ": { "name": "Azerbaycan", "lat": 40.14, "lng": 47.58 },
  "BA": { "name": "Bosna Hersek", "lat": 43.92, "lng": 17.68 },
  "BB": { "name": "Barbados", "lat": 13.19, "lng": -59.54 },
  "BD": { "name": "Bangladeş", "lat": 23.68, "lng": 90.36 },
  "BE": { "name": "Belçika", "lat": 50.5, "lng": 4.47 },
  "BG": { "name": "Bulgaristan", "lat": 42.73, "lng": 25.49 },
  "BH": { "name": "Bahreyn", "lat": 26.07, "lng": 50.56 },
  "BM": { "name": "Bermuda", "lat": 32.32, "lng": -64.75 },
  "BO": { "name": "Bolivya", "lat": -16.29, "lng": -63.59 },
  "BR": { "name": "Brezilya", "lat": -14.24, "lng": -51.93 },
  "BS": { "name": "Bahamalar", "lat": 24.25, "lng": -76.0 },
  "BY": { "name": "Belarus", "lat": 53.71, "lng": 27.95 },
  "BZ": { "name": "Belize", "lat": 17.19, "lng": -88.5 },
  "CA": { "name": "Kanada", "lat": 56.13, "lng": -106.35 },
  "CH": { "name": "İsviçre", "lat": 46.82, "lng": 8.23 },
  "CI": { "name": "Fildişi Sahili", "lat": 7.54, "lng": -5.55 },
  "CL": { "name": "Şili", "lat": -35.68, "lng": -71.54 },
  "CM": { "name": "Kamerun", "lat": 7.37, "lng": 12.35 },
  "CO": { "name": "Kolombiya", "lat": 4.57, "lng": -74.3 },
  "CR": { "name": "Kosta Rika", "lat": 9.75, "lng": -83.75 },
  "CU": { "name": "Küba", "lat": 21.52, "lng": -77.78 },
  "CV": { "name": "Yeşil Burun Adaları", "lat": 16.0, "lng": -24.0 },
  "CY": { "name": "Kıbrıs", "lat": 35.13, "lng": 33.43 },
  "CZ": { "name": "Çekya", "lat": 49.82, "lng": 15.47 },
  "DE": { "name": "Almanya", "lat": 51.17, "lng": 10.45 },
  "DK": { "name": "Danimarka", "lat": 56.26, "lng": 9.5 },
  "DO": { "name": "Dominik Cumhuriyeti", "lat": 18.74, "lng": -70.16 },
  "DZ": { "name": "Cezayir", "lat": 28.03, "lng": 1.66 },
  "EC": { "name": "Ekvador", "lat": -1.83, "lng": -78.18 },
  "EE": { "name": "Estonya", "lat": 58.6, "lng": 25.01 },
  "EG": { "name": "Mısır", "lat": 26.82, "lng": 30.8 },
  "ES": { "name": "İspanya", "lat": 40.46, "lng": -3.75 },
  "ET": { "name": "Etiyopya", "lat": 9.15, "lng": 40.49 },
  "FI": { "name": "Finlandiya", "lat": 61.92, "lng": 25.75 },
  "FJ": { "name": "Fiji", "lat": -17.71, "lng": 178.07 },
  "FR": { "name": "Fransa", "lat": 46.23, "lng": 2.21 },
  "GB": { "name": "Birleşik Krallık", "lat": 55.38, "lng": -3.44 },
  "GE": { "name": "Gürcistan", "lat": 42.32, "lng": 43.36 },
  "GF": { "name": "Fransız Guyanası", "lat": 3.93, "lng": -53.13 },
  "GG": { "name": "Guernsey", "lat": 49.45, "lng": -2.58 },
  "GH": { "name": "Gana", "lat": 7.95, "lng": -1.02 },
  "GI": { "name": "Cebelitarık", "lat": 36.14, "lng": -5.35 },
  "GQ": { "name": "Ekvator Ginesi", "lat": 1.65, "lng": 10.27 },
  "GR": { "name": "Yunanistan", "lat": 39.07, "lng": 21.82 },
  "GT": { "name": "Guatemala", "lat": 15.78, "lng": -90.23 },
  "GY": { "name": "Guyana", "lat": 4.86, "lng": -58.93 },
  "HK": { "name": "Hong Kong", "lat": 22.32, "lng": 114.17 },
  "HN": { "name": "Honduras", "lat": 15.2, "lng": -86.24 },
  "HR": { "name": "Hırvatistan", "lat": 45.1, "lng": 15.2 },
  "HU": { "name": "Macaristan", "lat": 47.16, "lng": 19.5 },
  "ID": { "name": "Endonezya", "lat": -0.79, "lng": 113.92 },
  "IE": { "name": "İrlanda", "lat": 53.41, "lng": -8.24 },
  "IL": { "name": "İsrail", "lat": 31.05, "lng": 34.85 },
  "IN": { "name": "Hindistan", "lat": 20.59, "lng": 78.96 },
  "IQ": { "name": "Irak", "lat": 33.22, "lng": 43.68 },
  "IS": { "name": "İzlanda", "lat": 64.96, "lng": -19.02 },
  "IT": { "name": "İtalya", "lat": 41.87, "lng": 12.57 },
  "JM": { "name": "Jamaika", "lat": 18.11, "lng": -77.3 },
  "JO": { "name": "Ürdün", "lat": 30.59, "lng": 36.24 },
  "JP": { "name": "Japonya", "lat": 36.2, "lng": 138.25 },
  "KE": { "name": "Kenya", "lat": -0.02, "lng": 37.91 },
  "KR": { "name": "Güney Kore", "lat": 35.91, "lng": 127.77 },
  "KW": { "name": "Kuveyt", "lat": 29.31, "lng": 47.48 },
  "KZ": { "name": "Kazakistan", "lat": 48.02, "lng": 66.92 },
  "LB": { "name": "Lübnan", "lat": 33.85, "lng": 35.86 },
  "LC": { "name": "Saint Lucia", "lat": 13.91, "lng": -60.98 },
  "LI": { "name": "Lihtenştayn", "lat": 47.17, "lng": 9.56 },
  "LK": { "name": "Sri Lanka", "lat": 7.87, "lng": 80.77 },
  "LT": { "name": "Litvanya", "lat": 55.17, "lng": 23.88 },
  "LU": { "name": "Lüksemburg", "lat": 49.82, "lng": 6.13 },
  "LV": { "name": "Letonya", "lat": 56.88, "lng": 24.6 },
  "LY": { "name": "Libya", "lat": 26.34, "lng": 17.23 },
  "MA": { "name": "Fas", "lat": 31.79, "lng": -7.09 },
  "MC": { "name": "Monako", "lat": 43.74, "lng": 7.42 },
  "MD": { "name": "Moldova", "lat": 47.41, "lng": 28.37 },
  "ME": { "name": "Karadağ", "lat": 42.71, "lng": 19.37 },
  "MG": { "name": "Madagaskar", "lat": -18.77, "lng": 46.87 },
  "MK": { "name": "Kuzey Makedonya", "lat": 41.61, "lng": 21.75 },
  "ML": { "name": "Mali", "lat": 17.57, "lng": -3.99 },
  "MT": { "name": "Malta", "lat": 35.94, "lng": 14.38 },
  "MU": { "name": "Mauritius", "lat": -20.35, "lng": 57.55 },
  "MX": { "name": "Meksika", "lat": 23.63, "lng": -102.55 },
  "MY": { "name": "Malezya", "lat": 4.21, "lng": 101.98 },
  "MZ": { "name": "Mozambik", "lat": -18.67, "lng": 35.53 },
  "NE": { "name": "Nijer", "lat": 17.61, "lng": 8.08 },
  "NG": { "name": "Nijerya", "lat": 9.08, "lng": 8.68 },
  "NI": { "name": "Nikaragua", "lat": 12.87, "lng": -85.21 },
  "NL": { "name": "Hollanda", "lat": 52.13, "lng": 5.29 },
  "NO": { "name": "Norveç", "lat": 60.47, "lng": 8.47 },
  "NZ": { "name": "Yeni Zelanda", "lat": -40.9, "lng": 174.89 },
  "OM": { "name": "Umman", "lat": 21.51, "lng": 55.92 },
  "PA": { "name": "Panama", "lat": 8.54, "lng": -80.78 },
  "PE": { "name": "Peru", "lat": -9.19, "lng": -75.02 },
  "PH": { "name": "Filipinler", "lat": 12.88, "lng": 121.77 },
  "PK": { "name": "Pakistan", "lat": 30.38, "lng": 69.35 },
  "PL": { "name": "Polonya", "lat": 51.92, "lng": 19.15 },
  "PS": { "name": "Filistin", "lat": 31.95, "lng": 35.23 },
  "PT": { "name": "Portekiz", "lat": 39.4, "lng": -8.22 },
  "PY": { "name": "Paraguay", "lat": -23.44, "lng": -58.44 },
  "QA": { "name": "Katar", "lat": 25.35, "lng": 51.18 },
  "RO": { "name": "Romanya", "lat": 45.94, "lng": 24.97 },
  "RS": { "name": "Sırbistan", "lat": 44.02, "lng": 21.01 },
  "RU": { "name": "Rusya", "lat": 61.52, "lng": 105.32 },
  "SA": { "name": "Suudi Arabistan", "lat": 23.89, "lng": 45.08 },
  "SC": { "name": "Seyşeller", "lat": -4.68, "lng": 55.49 },
  "SE": { "name": "İsveç", "lat": 60.13, "lng": 18.64 },
  "SG": { "name": "Singapur", "lat": 1.35, "lng": 103.82 },
  "SI": { "name": "Slovenya", "lat": 46.15, "lng": 14.99 },
  "SK": { "name": "Slovakya", "lat": 48.67, "lng": 19.7 },
  "SM": { "name": "San Marino", "lat": 43.94, "lng": 12.46 },
  "SN": { "name": "Senegal", "lat": 14.5, "lng": -14.45 },
  "SV": { "name": "El Salvador", "lat": 13.79, "lng": -88.9 },
  "SY": { "name": "Suriye", "lat": 34.8, "lng": 38.99 },
  "TC": { "name": "Turks ve Caicos Adaları", "lat": 21.69, "lng": -71.8 },
  "TD": { "name": "Çad", "lat": 15.45, "lng": 18.73 },
  "TH": { "name": "Tayland", "lat": 15.87, "lng": 100.99 },
  "TN": { "name": "Tunus", "lat": 33.89, "lng": 9.54 },
  "TR": { "name": "Türkiye", "lat": 38.96, "lng": 35.24 },
  "TT": { "name": "Trinidad ve Tobago", "lat": 10.69, "lng": -61.22 },
  "TW": { "name": "Tayvan", "lat": 23.7, "lng": 121.0 },
  "TZ": { "name": "Tanzanya", "lat": -6.37, "lng": 34.89 },
  "UA": { "name": "Ukrayna", "lat": 48.38, "lng": 31.17 },
  "UG": { "name": "Uganda", "lat": 1.37, "lng": 32.29 },
  "US": { "name": "Amerika Birleşik Devletleri", "lat": 37.09, "lng": -95.71 },
  "UY": { "name": "Uruguay", "lat": -32.52, "lng": -55.77 },
  "UZ": { "name": "Özbekistan", "lat": 41.38, "lng": 64.59 },
  "VE": { "name": "Venezuela", "lat": 6.42, "lng": -66.59 },
  "VN": { "name": "Vietnam", "lat": 14.06, "lng": 108.28 },
  "YE": { "name": "Yemen", "lat": 15.55, "lng": 48.52 },
  "ZA": { "name": "Güney Afrika", "lat": -30.56, "lng": 22.94 },
  "ZM": { "name": "Zambiya", "lat": -13.13, "lng": 27.85 },
  "ZW": { "name": "Zimbabve", "lat": -19.02, "lng": 29.15 }
}
